[
    {
        "id": 4,
        "name": "328 Katong Laksa",
        "type": "Bib Gourmand",
        "lat": 1.3045,
        "lng": 103.9064,
        "specialty": "Laksa",
        "description": "The quintessential Katong Laksa experience."
    },
    {
        "id": 5,
        "name": "Odette",
        "type": "Stars",
        "lat": 1.2892,
        "lng": 103.8516,
        "specialty": "Pigeon Fabien Dine",
        "description": "3-Michelin-starred Modern French cuisine in the National Gallery. Address: 1 St Andrew's Rd, #01-04"
    },
    {
        "id": 6,
        "name": "Burnt Ends",
        "type": "Stars",
        "lat": 1.2806,
        "lng": 103.8115,
        "specialty": "Burnt Ends Sanger",
        "description": "Australian BBQ fine dining. Address: 7 Dempsey Rd, #01-04"
    },
    {
        "id": 7,
        "name": "A Noodle Story",
        "type": "Bib Gourmand",
        "lat": 1.2792,
        "lng": 103.8471,
        "specialty": "Singapore Style Ramen",
        "description": "Singapore Ramen at Amoy Street Food Centre, #01-39"
    },
    {
        "id": 8,
        "name": "Seroja",
        "type": "Stars",
        "lat": 1.2995,
        "lng": 103.8557,
        "specialty": "Flavours of the Malay Archipelago",
        "description": "Malay-Archipelago fine dining. Address: 7 Fraser St, #01-30/33 Duo Galleria"
    },
    {
        "id": 9,
        "name": "Boon Tong Kee",
        "type": "Bib Gourmand",
        "lat": 1.3255,
        "lng": 103.8478,
        "specialty": "Signature Boiled Chicken",
        "description": "Chicken Rice legendary chain. Address: 399 Balestier Rd"
    },
    {
        "name": "Synthesis",
        "address": "3 Temasek Blvd, Tower 4 #01-643, Singapore 038983",
        "lat": 1.2936,
        "lng": 103.8592,
        "country_code": "SG",
        "reviews": [
            {
                "specialty_dish": "TCM-Inspired Ice Cream",
                "key_flavors": "Traditional herbal flavors",
                "post_date": "2026-03-19",
                "url": "https://www.facebook.com/reel/1585268192547020",
                "thumbnail": "",
                "is_hot": true
            }
        ],
        "is_hot": true
    },
    {
        "name": "Mr. Bucket Chocolaterie",
        "address": "13, Dempsey Road, Ridout, Tanglin, Central Region, Singapore, 249674, Singapore",
        "lat": 1.304662,
        "lng": 103.8102859,
        "country": "Singapore",
        "country_code": "SG",
        "state": null,
        "city": null,
        "tags": [
            "chocolate",
            "kaya toast",
            "workshop",
            "dempsey",
            "singapore food"
        ],
        "reviews": [
            {
                "specialty_dish": "Kaya toast chocolate",
                "key_flavors": "Kaya (coconut jam) and toast flavored chocolate",
                "post_date": "2026-02-25",
                "url": "https://www.facebook.com/reel/761781776790482",
                "thumbnail": "",
                "source": "Singapore Foodie",
                "media_type": "facebook_reel",
                "is_hot": false
            }
        ],
        "is_hot": false
    }
]